City_ID,City,Country,Date,Lat,Lng,Max Temp,Humidity,Cloudiness,Wind Speed
0,Nikolskoye,RU,8/22/2020 1:55,59.7,30.79,57.2,71,96,4.47
1,Bajil,YE,8/22/2020 1:57,15.06,43.29,88.48,62,83,8.08
2,Albany,US,8/22/2020 1:56,42.6,-73.97,75,89,95,3.8
3,Mar Del Plata,AR,8/22/2020 1:54,-38,-57.56,50,93,0,2.24
4,Los Llanos De Aridane,ES,8/22/2020 1:56,28.66,-17.92,73.4,83,20,12.75
5,Itarema,BR,8/22/2020 1:56,-2.92,-39.92,77.02,89,22,11.27
6,Longyearbyen,SJ,8/22/2020 1:56,78.22,15.64,40.77,82,77,3.22
7,Juneau,US,8/22/2020 1:57,58.3,-134.42,55.99,93,90,10.29
8,Hilo,US,8/22/2020 1:56,19.73,-155.09,84.2,62,1,10.29
9,Aksarka,RU,8/22/2020 1:56,66.56,67.8,52.74,81,9,15.12
10,Rawson,AR,8/22/2020 1:56,-43.3,-65.1,55.74,39,0,8.5
11,Carnarvon,AU,8/22/2020 1:56,-24.87,113.63,69.8,52,85,4.7
12,Rikitea,PF,8/22/2020 1:52,-23.12,-134.97,65.66,72,92,21.85
13,Laguna,US,8/22/2020 1:53,38.42,-121.42,93.2,27,90,5.82
14,Ushuaia,AR,8/22/2020 1:55,-54.8,-68.3,41,80,75,4.7
15,Grand-Santi,GF,8/22/2020 1:56,4.25,-54.38,74.35,80,2,2.55
16,Kahului,US,8/22/2020 1:56,20.89,-156.47,89.6,46,40,21.92
17,Portland,US,8/22/2020 1:55,45.52,-122.68,75.2,53,90,11.41
18,Hobart,AU,8/22/2020 1:52,-42.88,147.33,50,66,75,12.75
19,Zanjan,IR,8/22/2020 1:57,36.67,48.48,62.17,55,0,7.99
20,Kapaa,US,8/22/2020 1:52,22.08,-159.32,82.4,69,90,11.41
21,Pulandian,CN,8/22/2020 1:57,39.4,121.97,75.2,73,75,6.71
22,Faanui,PF,8/22/2020 1:56,-16.48,-151.75,77.54,80,11,22.68
23,Parsabad,IR,8/22/2020 1:57,39.65,47.92,77,53,75,11.41
24,Busselton,AU,8/22/2020 1:55,-33.65,115.33,63,53,91,10.02
25,Punta Arenas,CL,8/22/2020 1:54,-53.15,-70.92,42.01,80,100,23.04
26,Port Blair,IN,8/22/2020 1:56,11.67,92.75,83.57,77,100,9.4
27,Bluff,NZ,8/22/2020 1:52,-46.6,168.33,55,75,0,8.01
28,Maceio,BR,8/22/2020 1:56,-9.67,-35.74,73.4,88,83,3.36
29,Avarua,CK,8/22/2020 1:56,-21.21,-159.78,77,78,1,19.46
30,Benguela,AO,8/22/2020 1:53,-12.58,13.41,67.89,84,93,4.54
31,Beringovskiy,RU,8/22/2020 1:56,63.05,179.32,51.71,92,100,13.27
32,Butaritari,KI,8/22/2020 1:56,3.07,172.79,82.24,65,100,2.59
33,Rawlins,US,8/22/2020 1:57,41.79,-107.24,82.4,12,1,11.41
34,Bredasdorp,ZA,8/22/2020 1:56,-34.53,20.04,44.6,93,0,5.82
35,New Norfolk,AU,8/22/2020 1:56,-42.78,147.06,48,82,30,1.99
36,Jiuquan,CN,8/22/2020 1:56,39.74,98.52,78.48,28,100,10.31
37,Dikson,RU,8/22/2020 1:53,73.51,80.55,43.05,79,0,14.14
38,Nemuro,JP,8/22/2020 1:56,43.32,145.57,71.6,60,75,5.82
39,Kharp,RU,8/22/2020 1:57,66.8,65.81,51.84,83,99,8.46
40,Tuktoyaktuk,CA,8/22/2020 1:56,69.45,-133.04,57.2,76,20,13.87
41,Takoradi,GH,8/22/2020 1:56,4.88,-1.76,73.71,92,11,8.72
42,Jamestown,US,8/22/2020 1:54,42.1,-79.24,66.2,72,1,1.79
43,Bambanglipuro,ID,8/22/2020 1:57,-7.95,110.28,83.34,65,29,7.38
44,Kununurra,AU,8/22/2020 1:51,-15.77,128.73,93.2,27,0,8.05
45,Saint-Philippe,RE,8/22/2020 1:53,-21.36,55.77,62.6,59,82,9.17
46,Isangel,VU,8/22/2020 1:56,-19.55,169.27,82.4,78,40,9.17
47,Ribeira Grande,PT,8/22/2020 1:53,38.52,-28.7,69.21,65,0,1.68
48,Boysun,UZ,8/22/2020 1:57,38.21,67.2,68.29,25,0,2.48
49,Sambava,MG,8/22/2020 1:57,-14.27,50.17,66.34,84,69,9.95
50,Bol,TD,8/22/2020 1:57,13.46,14.71,80.89,74,100,7.07
51,Vaini,TO,8/22/2020 1:56,-21.2,-175.2,80.6,83,40,6.93
52,Tamiahua,MX,8/22/2020 1:53,21.27,-97.45,81.25,82,0,8.95
53,Tobe,JP,8/22/2020 1:57,33.74,132.79,93.99,70,40,11.41
54,Castro,BR,8/22/2020 1:55,-24.79,-50.01,40.03,95,90,4.81
55,Roros,NO,8/22/2020 1:57,62.57,11.38,59,82,93,9.17
56,Alice Springs,AU,8/22/2020 1:53,-23.7,133.88,66.2,25,0,14.99
57,Namikupa,TZ,8/22/2020 1:57,-10.83,39.6,62.64,96,2,3.22
58,Vila Velha,BR,8/22/2020 1:56,-20.33,-40.29,68,72,75,14.99
59,Victoria,HK,8/22/2020 1:52,22.29,114.16,91,70,1,2.24
60,Georgetown,MY,8/22/2020 1:54,5.41,100.34,80.6,94,20,4.7
61,Bulgan,MN,8/22/2020 1:57,48.81,103.53,63.21,64,0,6.91
62,Hasaki,JP,8/22/2020 1:51,35.73,140.83,90,74,40,4.7
63,Hithadhoo,MV,8/22/2020 1:53,-0.6,73.08,82.94,76,23,11.45
64,Kaitangata,NZ,8/22/2020 1:53,-46.28,169.85,56.55,63,7,0.67
65,Ambatondrazaka,MG,8/22/2020 1:57,-17.83,48.42,53.64,91,32,3.51
66,Santiago Del Estero,AR,8/22/2020 1:55,-27.8,-64.26,48.25,45,0,8.52
67,Katsuura,JP,8/22/2020 1:56,35.13,140.3,90,74,20,10.29
68,Bambous Virieux,MU,8/22/2020 1:56,-20.34,57.76,68,82,75,8.88
69,Neya,RU,8/22/2020 1:57,58.3,43.87,47.68,90,0,4.34
70,Biltine,TD,8/22/2020 1:56,14.53,20.92,79.83,69,89,3.13
71,Aquiraz,BR,8/22/2020 1:57,-3.9,-38.39,78.8,83,75,12.75
72,East London,ZA,8/22/2020 1:56,-33.02,27.91,56.98,63,6,7.83
73,Thompson,CA,8/22/2020 1:56,55.74,-97.86,59,67,40,2.24
74,Beidao,CN,8/22/2020 1:57,34.57,105.89,71.73,72,100,3.44
75,Grindavik,IS,8/22/2020 1:55,63.84,-22.43,48.2,81,0,12.75
76,Saldanha,ZA,8/22/2020 1:57,-33.01,17.94,50,81,0,4.7
77,Mataura,NZ,8/22/2020 1:55,-46.19,168.86,55,75,12,8.01
78,Seoul,KR,8/22/2020 1:56,37.57,126.98,80.6,78,75,4.18
79,Tasiilaq,GL,8/22/2020 1:53,65.61,-37.64,46.4,68,0,8.05
80,Lebu,CL,8/22/2020 1:56,-37.62,-73.65,48.25,89,1,9.89
81,Buraydah,SA,8/22/2020 1:56,26.33,43.98,86,27,0,6.93
82,Kirsanov,RU,8/22/2020 1:57,52.65,42.72,51.31,75,0,4.43
83,San Patricio,MX,8/22/2020 1:54,19.22,-104.7,86,79,75,11.41
84,Pisco,PE,8/22/2020 1:56,-13.7,-76.22,60.8,82,75,9.17
85,Henties Bay,NA,8/22/2020 1:56,-22.12,14.28,63.64,28,78,4.83
86,Bilma,NE,8/22/2020 1:56,18.69,12.92,89.42,42,33,8.39
87,Dargaville,NZ,8/22/2020 1:57,-35.93,173.88,62.94,64,5,7.07
88,Husavik,IS,8/22/2020 1:56,66.04,-17.34,44.6,81,40,5.82
89,Svetlaya,RU,8/22/2020 1:56,46.54,138.33,73.36,49,0,6.6
90,Sinnamary,GF,8/22/2020 1:57,5.38,-52.95,78.71,82,0,8.3
91,Sokol,RU,8/22/2020 1:56,59.46,40.12,49.77,90,0,1.43
92,Dzhebariki-Khaya,RU,8/22/2020 1:57,62.22,135.8,60.96,34,4,6.04
93,Chokurdakh,RU,8/22/2020 1:56,70.63,147.92,39.09,74,100,7.76
94,Kailua,US,8/22/2020 1:57,21.4,-157.74,84.2,62,75,13.87
95,Saskylakh,RU,8/22/2020 1:56,71.92,114.08,46.24,61,13,6.24
96,Clyde River,CA,8/22/2020 1:56,70.47,-68.59,44.31,88,96,4.34
97,Namatanai,PG,8/22/2020 1:56,-3.67,152.43,83.84,74,28,5.59
98,Chuy,UY,8/22/2020 1:56,-33.7,-53.46,43.79,77,0,6.38
99,Sao Filipe,CV,8/22/2020 1:56,14.9,-24.5,77.41,77,27,4.21
100,Naze,JP,8/22/2020 1:56,28.37,129.48,87.8,70,20,3.36
101,Iskateley,RU,8/22/2020 1:57,67.68,53.15,47.35,90,78,4.36
102,Luderitz,NA,8/22/2020 1:56,-26.65,15.16,70.9,20,0,21.14
103,Mandera,KE,8/22/2020 1:54,3.94,41.87,75.45,66,15,15.05
104,Yellowknife,CA,8/22/2020 1:55,62.46,-114.35,57.2,54,75,13.87
105,Chicama,PE,8/22/2020 1:55,-7.84,-79.15,61.99,79,100,4.79
106,Cidreira,BR,8/22/2020 1:56,-30.18,-50.21,46.78,66,0,6.04
107,Jacareacanga,BR,8/22/2020 1:57,-6.22,-57.75,80.78,46,33,2.91
108,Tessalit,ML,8/22/2020 1:57,20.2,1.01,92.84,12,0,8.39
109,Katherine,AU,8/22/2020 1:57,-14.47,132.27,89.6,35,0,3.36
110,Silver City,US,8/22/2020 1:57,32.77,-108.28,82.4,24,1,14.99
111,Yukhnov,RU,8/22/2020 1:57,54.74,35.23,50.77,88,0,3.38
112,Kyra,RU,8/22/2020 1:56,49.58,111.98,68.47,73,100,5.01
113,Marsala,IT,8/22/2020 1:57,37.8,12.44,75.2,88,0,4.7
114,Berlevag,NO,8/22/2020 1:57,70.86,29.09,55.58,86,37,12.01
115,Coahuayana,MX,8/22/2020 1:53,18.73,-103.68,77,88,75,11.41
116,Tabou,CI,8/22/2020 1:57,4.42,-7.35,75.36,87,100,9.33
117,Hermanus,ZA,8/22/2020 1:53,-34.42,19.23,42.01,95,0,2.19
118,Svetlogorsk,BY,8/22/2020 1:56,52.63,29.73,55.89,94,70,4.79
119,Moose Factory,CA,8/22/2020 1:57,51.26,-80.61,59,82,90,9.17
120,Ostrovnoy,RU,8/22/2020 1:53,68.05,39.51,57.24,84,0,10.54
121,Pevek,RU,8/22/2020 1:56,69.7,170.31,40.86,86,100,7.47
122,Samarai,PG,8/22/2020 1:56,-10.62,150.67,78.28,78,99,9.66
123,Isla Mujeres,MX,8/22/2020 1:57,21.23,-86.73,82.4,83,75,5.82
124,Ahipara,NZ,8/22/2020 1:55,-35.17,173.17,61.38,73,83,9.69
125,Arraial Do Cabo,BR,8/22/2020 1:56,-22.97,-42.03,66.2,88,90,13.87
126,Norman Wells,CA,8/22/2020 1:56,65.28,-126.83,66.2,48,75,12.75
127,Port Elizabeth,ZA,8/22/2020 1:53,-33.92,25.57,51.8,81,14,5.82
128,Chipata,ZM,8/22/2020 1:57,-13.63,32.65,57.56,82,85,9.4
129,Torbay,CA,8/22/2020 1:53,47.67,-52.73,63,77,75,17.22
130,Ugoofaaru,MV,8/22/2020 1:57,5.67,73,82.08,73,22,4.32
131,Muisne,EC,8/22/2020 1:57,0.6,-80.03,73.65,83,100,5.97
132,Igarka,RU,8/22/2020 1:57,67.47,86.58,56.8,67,94,7.36
133,Sabang,ID,8/22/2020 1:55,5.89,95.32,82.54,71,100,1.9
134,Lumut,MY,8/22/2020 1:57,4.23,100.63,78.8,88,20,2.24
135,Atuona,PF,8/22/2020 1:56,-9.8,-139.03,79.05,74,13,10.25
136,San Cristobal,VE,8/22/2020 1:56,7.77,-72.22,67.93,93,100,3.13
137,Grand Gaube,MU,8/22/2020 1:57,-20.01,57.66,66.99,79,0,4
138,Cape Town,ZA,8/22/2020 1:53,-33.93,18.42,45,93,0,4.7
139,Ransang,PH,8/22/2020 1:57,8.96,117.58,85.57,70,96,0.67
140,Saint-Andre-Avellin,CA,8/22/2020 1:57,45.72,-75.07,64,93,20,2.24
141,Hobyo,SO,8/22/2020 1:56,5.35,48.53,75.65,82,76,23.64
142,Saint-Augustin,CA,8/22/2020 1:56,51.23,-58.65,54.07,75,0,6.31
143,Puerto Ayora,EC,8/22/2020 1:56,-0.74,-90.35,66.99,88,62,7
144,Cuamba,MZ,8/22/2020 1:56,-14.8,36.54,61.5,84,1,5.95
145,Iralaya,HN,8/22/2020 1:57,15,-83.23,80.35,85,58,7.92
146,Teahupoo,PF,8/22/2020 1:57,-17.83,-149.27,78.8,78,75,5.82
147,Progreso,MX,8/22/2020 1:57,21.28,-89.67,79,88,75,5.82
148,Saint George,US,8/22/2020 1:56,37.1,-113.58,104,12,1,13.87
149,Ayakudi,IN,8/22/2020 1:57,10.45,77.55,79.57,63,33,3.47
150,Wakkanai,JP,8/22/2020 1:57,45.41,141.67,73.4,64,20,13.87
151,Ranot,TH,8/22/2020 1:57,7.78,100.32,84.24,66,94,3.87
152,Urucara,BR,8/22/2020 1:56,-2.54,-57.76,80.4,44,23,1.83
153,Manacapuru,BR,8/22/2020 1:57,-3.3,-60.62,82.4,78,5,10.29
154,Nanortalik,GL,8/22/2020 1:56,60.14,-45.24,45.57,72,0,0.09
155,Kodiak,US,8/22/2020 1:56,57.79,-152.41,69.8,52,1,6.93
156,Port Alfred,ZA,8/22/2020 1:53,-33.59,26.89,58.24,62,37,8.01
157,Mampong,GH,8/22/2020 1:57,7.06,-1.4,69.35,98,97,4.7
158,Khatanga,RU,8/22/2020 1:55,71.97,102.5,53.06,51,0,14.81
159,Praia Da Vitoria,PT,8/22/2020 1:56,38.73,-27.07,68,94,20,2.3
160,Najran,SA,8/22/2020 1:57,17.49,44.13,77,23,87,4.7
161,Hami,CN,8/22/2020 1:56,42.8,93.45,83.55,19,0,6.53
162,Brunico,IT,8/22/2020 1:57,46.8,11.94,66.2,82,0,3.36
163,Salt,JO,8/22/2020 1:57,32.04,35.73,68,77,20,9.17
164,Cayenne,GF,8/22/2020 1:57,4.93,-52.33,75.2,100,0,7.65
165,Asfi,MA,8/22/2020 1:57,32.3,-9.24,70.74,76,0,14.74
166,Barrow,US,8/22/2020 1:56,71.29,-156.79,53.6,76,1,10.29
167,Singaraja,ID,8/22/2020 1:57,-8.11,115.09,85.26,50,16,1.21
168,Boa Vista,BR,8/22/2020 1:55,2.82,-60.67,84.2,66,27,4.7
169,Olivet,FR,8/22/2020 1:57,47.86,1.9,64,82,72,10.29
170,Mount Isa,AU,8/22/2020 1:56,-20.73,139.5,77,17,0,12.75
171,Maraba,BR,8/22/2020 1:57,-5.37,-49.12,82.4,58,56,2.24
172,Bonavista,CA,8/22/2020 1:56,48.65,-53.11,62.01,74,87,8.99
173,Provideniya,RU,8/22/2020 1:53,64.38,-173.3,49.28,89,100,11.5
174,Padang,ID,8/22/2020 1:57,-0.95,100.35,84.34,66,27,1.57
175,Lompoc,US,8/22/2020 1:53,34.64,-120.46,68,82,90,12.75
176,Japura,ID,8/22/2020 1:57,-0.32,102.35,83.44,67,47,4.99
177,Asosa,ET,8/22/2020 1:57,10.07,34.53,60.35,100,100,0.63
178,Dunedin,NZ,8/22/2020 1:56,-45.87,170.5,50,86,7,8.99
179,Gaziantep,TR,8/22/2020 1:57,37.06,37.38,75.2,36,0,16.11
180,Yanaul,RU,8/22/2020 1:57,56.27,54.93,52.59,93,100,8.5
181,Sao Raimundo Nonato,BR,8/22/2020 1:57,-9.02,-42.7,75.33,42,10,5.57
182,Qaanaaq,GL,8/22/2020 1:56,77.48,-69.36,36.21,83,100,1.05
183,Sri Aman,MY,8/22/2020 1:57,1.24,111.46,84.2,83,20,1.3
184,North Vernon,US,8/22/2020 1:57,39.01,-85.62,72,84,100,3.94
185,Mehran,IR,8/22/2020 1:57,33.12,46.16,64.4,25,0,2.24
186,Angatuba,BR,8/22/2020 1:57,-23.49,-48.41,46.62,86,100,11.07
187,Carutapera,BR,8/22/2020 1:57,-1.2,-46.02,77.13,86,1,5.73
188,Kletnya,RU,8/22/2020 1:57,53.39,33.22,49.98,95,0,5.3
189,Ossora,RU,8/22/2020 1:57,59.24,163.07,53.19,85,100,1.19
190,Cabedelo,BR,8/22/2020 1:56,-6.98,-34.83,73.4,88,40,4.7
191,Tiksi,RU,8/22/2020 1:56,71.69,128.87,40.26,90,100,9.89
192,Viedma,AR,8/22/2020 1:57,-40.81,-63,54,52,0,3
193,Fairbanks,US,8/22/2020 1:56,64.84,-147.72,68,56,90,6.22
194,Svetlyy,RU,8/22/2020 1:57,54.67,20.13,71.6,64,81,6.71
195,Zyryanka,RU,8/22/2020 1:56,65.75,150.85,46.53,55,100,17.56
196,Riyadh,SA,8/22/2020 1:53,24.69,46.72,82.4,26,59,2.24
197,Brits,ZA,8/22/2020 1:57,-25.63,27.78,51.01,82,0,6.87
198,Vallenar,CL,8/22/2020 1:55,-28.57,-70.76,60.13,46,0,1.39
199,Nueva Italia,PY,8/22/2020 1:57,-25.62,-57.5,50,39,0,6.93
200,Ancud,CL,8/22/2020 1:56,-41.87,-73.82,45,100,90,3.36
201,Cabinda,AO,8/22/2020 1:57,-5.55,12.2,72.21,88,28,6.35
202,Parrita,CR,8/22/2020 1:57,9.52,-84.32,68,100,90,5.82
203,Kollam,IN,8/22/2020 1:57,8.88,76.6,80.6,88,20,2.24
204,Benjamin Constant,BR,8/22/2020 1:57,-4.38,-70.03,64.4,93,75,5.82
205,Bintulu,MY,8/22/2020 1:57,3.17,113.03,84.2,83,20,2.24
206,Bethel,US,8/22/2020 1:56,41.37,-73.41,73.4,73,1,3.91
207,Tura,IN,8/22/2020 1:57,25.52,90.22,75.97,89,88,5.08
208,Hammerfest,NO,8/22/2020 1:57,70.66,23.68,62.6,77,73,16.11
209,Bubaque,GW,8/22/2020 1:56,11.28,-15.83,79.92,84,100,17.05
210,Sattahip,TH,8/22/2020 1:57,12.67,100.9,86,66,20,4.7
211,Vestmannaeyjar,IS,8/22/2020 1:56,63.44,-20.27,50.95,66,0,9.86
212,Salaspils,LV,8/22/2020 1:57,56.86,24.37,62.6,88,100,8.05
213,Strelka,RU,8/22/2020 1:57,58.07,93.03,60.39,93,100,3.02
214,Talcahuano,CL,8/22/2020 1:56,-36.72,-73.12,50,93,0,6.93
215,Dukat,RU,8/22/2020 1:56,62.55,155.55,34.07,93,100,6.24
216,Waipawa,NZ,8/22/2020 1:56,-41.41,175.52,60.8,67,61,13.87
217,Bakel,SN,8/22/2020 1:57,14.9,-12.46,81.12,76,87,11.9
218,Upernavik,GL,8/22/2020 1:52,72.79,-56.15,42.42,80,1,10.31
219,Miyang,CN,8/22/2020 1:57,24.4,103.44,69.84,82,97,3.49
220,Kropotkin,RU,8/22/2020 1:57,45.44,40.58,62.94,72,13,4.81
221,Kushmurun,KZ,8/22/2020 1:57,52.45,64.63,55.85,85,82,6.53
222,Dubbo,AU,8/22/2020 1:54,-32.25,148.62,50,76,40,21.92
223,Peniche,PT,8/22/2020 1:57,39.36,-9.38,66.99,93,0,4
224,Zuwarah,LY,8/22/2020 1:57,32.93,12.08,79.74,66,0,11.07
225,Bima,ID,8/22/2020 1:56,-8.47,118.72,90.21,44,0,4.05
226,Te Anau,NZ,8/22/2020 1:56,-45.42,167.72,53.28,65,14,1.92
227,Christchurch,NZ,8/22/2020 1:53,-43.53,172.63,55.4,76,1,11.41
228,Mahebourg,MU,8/22/2020 1:56,-20.41,57.7,68,82,75,8.3
229,Mingaora,PK,8/22/2020 1:57,34.78,72.36,74.08,67,0,2.68
230,Yashiro,JP,8/22/2020 1:57,34.92,134.97,93.2,59,20,10.29
231,Korla,CN,8/22/2020 1:53,41.76,86.15,80.78,25,22,6.17
232,Jumla,NP,8/22/2020 1:56,29.27,82.18,66.54,63,68,1.3
233,Presidente Medici,BR,8/22/2020 1:57,-11.18,-61.9,62.04,55,0,9.1
234,Kaduqli,SD,8/22/2020 1:57,11.02,29.72,72.86,96,100,2.37
235,Hlukhiv,UA,8/22/2020 1:57,51.68,33.92,56.95,94,100,9.42
236,Olafsvik,IS,8/22/2020 1:56,64.89,-23.71,50.16,64,0,12.33
237,La Ronge,CA,8/22/2020 1:54,55.1,-105.28,62.6,82,90,10.29
238,Kuito,AO,8/22/2020 1:57,-12.38,16.93,56.19,42,64,3.29
239,Agapovka,RU,8/22/2020 1:57,53.3,59.13,53.6,93,75,6.71
240,Saint-Leu,RE,8/22/2020 1:56,-21.15,55.28,62.6,59,0,9.17
241,Luan,CH,8/22/2020 1:57,46.36,6.98,69.8,68,0,1.12
242,Shimizu,JP,8/22/2020 1:57,43.01,142.88,66.2,72,75,3.36
243,Inhambane,MZ,8/22/2020 1:56,-23.86,35.38,63.54,80,24,8.81
244,Urumqi,CN,8/22/2020 1:57,43.8,87.6,73.4,43,32,8.95
245,Marsh Harbour,BS,8/22/2020 1:57,26.54,-77.06,82.87,78,1,10.07
246,Springfield,US,8/22/2020 1:54,37.22,-93.3,81,44,1,4.7
247,Marawi,PH,8/22/2020 1:56,8,124.29,81,78,100,2.39
248,Fortuna,US,8/22/2020 1:56,40.6,-124.16,72,73,90,14.99
249,Impfondo,CG,8/22/2020 1:57,1.64,18.07,72.91,87,97,2.3
250,Bitung,ID,8/22/2020 1:57,1.45,125.18,86,66,20,6.93
251,Beyneu,KZ,8/22/2020 1:56,45.32,55.2,74.26,47,100,7.2
252,Bull Savanna,JM,8/22/2020 1:57,17.89,-77.59,77.09,86,55,8.59
253,Port Lincoln,AU,8/22/2020 1:56,-34.73,135.87,54.32,59,25,20.96
254,Rumoi,JP,8/22/2020 1:57,43.93,141.64,72.23,49,61,3.15
255,Palu,ID,8/22/2020 1:57,-0.89,119.87,90.25,49,53,1.21
256,Bogalusa,US,8/22/2020 1:57,30.79,-89.85,77,83,1,5.82
257,Muros,ES,8/22/2020 1:56,42.78,-9.06,59,93,3,4.38
258,Bandarbeyla,SO,8/22/2020 1:56,9.49,50.81,76.6,70,95,27.78
259,The Valley,AI,8/22/2020 1:56,18.22,-63.06,82.4,88,40,13.87
260,Shuangyang,CN,8/22/2020 1:57,43.52,125.67,73.4,56,0,4.47
261,Sweetwater,US,8/22/2020 1:57,25.76,-80.37,87.8,70,75,8.05
262,Cockburn Town,TC,8/22/2020 1:56,21.46,-71.14,83.7,81,8,20.71
263,Cherskiy,RU,8/22/2020 1:56,68.75,161.3,39.61,90,100,14.56
264,Tokur,RU,8/22/2020 1:54,53.13,132.9,63.63,73,19,9.98
265,Turkistan,KZ,8/22/2020 1:57,43,68,71.47,23,63,6.6
266,Qaqortoq,GL,8/22/2020 1:56,60.72,-46.03,46,70,0,4.52
267,Gazojak,TM,8/22/2020 1:57,41.19,61.4,72.73,21,0,9.19
268,Tamworth,GB,8/22/2020 1:56,52.63,-1.7,60.01,93,75,11.41
269,Bauchi,NG,8/22/2020 1:57,10.5,10,67.37,92,98,1.23
270,Shelbyville,US,8/22/2020 1:56,35.48,-86.46,72,94,90,5.82
271,Paka,MY,8/22/2020 1:57,4.64,103.44,75.2,94,40,3.36
272,Sola,VU,8/22/2020 1:57,-13.88,167.55,81.41,82,58,20.49
273,Svarstad,NO,8/22/2020 1:57,59.4,9.97,64.99,91,41,4
274,College Place,US,8/22/2020 1:57,46.05,-118.39,88,31,1,16.11
275,Mogadishu,SO,8/22/2020 1:57,2.04,45.34,75.69,83,78,12.88
276,Kimbe,PG,8/22/2020 1:57,-5.55,150.14,90.43,55,23,2.39
277,Cozumel,MX,8/22/2020 1:57,20.51,-86.95,78.8,88,75,4.7
278,Verkhnevilyuysk,RU,8/22/2020 1:56,63.45,120.32,58.89,43,0,3.65
279,Toamasina,MG,8/22/2020 1:57,-18.17,49.38,64.4,93,75,6.46
280,Anadyr,RU,8/22/2020 1:57,64.75,177.48,51.01,100,40,20.13
281,Talnakh,RU,8/22/2020 1:56,69.49,88.4,59,67,53,6.71
282,Port Macquarie,AU,8/22/2020 1:56,-31.43,152.92,63,52,81,4
283,Porbandar,IN,8/22/2020 1:57,21.64,69.61,81.66,87,100,9.04
284,Xuddur,SO,8/22/2020 1:57,4.12,43.89,70.43,79,96,15.01
285,Samarina,RU,8/22/2020 1:57,57.89,27.81,51.8,93,100,4.47
286,Ndele,CF,8/22/2020 1:57,8.41,20.65,71.85,94,100,2.1
287,Kruisfontein,ZA,8/22/2020 1:54,-34,24.73,51.98,55,0,5.77
288,Yumen,CN,8/22/2020 1:56,40.28,97.2,78.93,28,100,18.12
289,Acarau,BR,8/22/2020 1:57,-2.89,-40.12,76.78,89,19,11.27
290,Spornoye,RU,8/22/2020 1:57,50.84,37.29,55.4,93,75,6.71
291,Kieta,PG,8/22/2020 1:55,-6.22,155.63,84.51,71,100,4.85
292,Candido Mendes,BR,8/22/2020 1:57,-1.45,-45.72,74.88,92,0,3.18
293,Port Hardy,CA,8/22/2020 1:55,50.7,-127.42,59,87,75,9.17
294,Leningradskiy,RU,8/22/2020 1:56,69.38,178.42,46.6,74,100,2.26
295,Ponta Do Sol,PT,8/22/2020 1:56,32.67,-17.1,73.4,83,75,9.17
296,Loikaw,MM,8/22/2020 1:57,19.67,97.21,72.01,93,99,0.96
297,Lumphat,KH,8/22/2020 1:57,13.49,106.98,83.01,81,32,2.21
298,Soyo,AO,8/22/2020 1:57,-6.13,12.37,71.82,89,8,6.26
299,Qasigiannguit,GL,8/22/2020 1:57,68.82,-51.19,42.8,60,3,2.24
300,Canutama,BR,8/22/2020 1:57,-6.53,-64.38,69.55,47,0,7.02
301,Barkly West,ZA,8/22/2020 1:57,-28.54,24.52,35.6,47,0,4.7
302,Burnie,AU,8/22/2020 1:57,-41.07,145.92,52,49,38,7
303,Airai,TL,8/22/2020 1:56,-8.93,125.41,76.55,32,0,6.31
304,Lyubar,UA,8/22/2020 1:57,49.92,27.76,60.53,95,12,6.29
305,Harper,LR,8/22/2020 1:56,4.38,-7.72,75.22,88,100,10.04
306,Sulina,RO,8/22/2020 1:57,45.16,29.65,72.45,68,0,11.68
307,Nhulunbuy,AU,8/22/2020 1:56,-12.23,136.77,86,37,0,14.99
308,Amzya,RU,8/22/2020 1:57,56.24,54.39,52.59,93,99,7.14
309,Prince Rupert,CA,8/22/2020 1:53,54.32,-130.32,57.2,100,90,5.82
310,Deputatskiy,RU,8/22/2020 1:56,69.3,139.9,35.56,85,97,4.29
311,Necochea,AR,8/22/2020 1:56,-38.55,-58.74,41,89,0,4
312,Nizwa,OM,8/22/2020 1:57,22.93,57.53,88.83,46,56,1.97
313,Domoni,KM,8/22/2020 1:57,-12.26,44.53,75.15,72,81,5.35
314,Mount Gambier,AU,8/22/2020 1:52,-37.83,140.77,48.2,81,75,14.99
315,Kudahuvadhoo,MV,8/22/2020 1:57,2.67,72.89,83.39,68,9,8.32
316,Tilichiki,RU,8/22/2020 1:57,60.47,166.1,54.14,76,100,2.04
317,Cap Malheureux,MU,8/22/2020 1:56,-19.98,57.61,66.99,79,0,4
318,Ovsyanka,RU,8/22/2020 1:57,55.96,92.55,57.2,93,40,6.71
319,Pangody,RU,8/22/2020 1:56,65.85,74.49,53.17,78,14,10.33
320,Puerto Madero,MX,8/22/2020 1:57,14.72,-92.42,82.4,88,75,2.46
321,Hambantota,LK,8/22/2020 1:56,6.12,81.12,78.8,100,20,5.82
322,Tazovskiy,RU,8/22/2020 1:57,67.47,78.7,51.66,84,22,8.93
323,Leshukonskoye,RU,8/22/2020 1:57,64.9,45.76,53.46,97,98,3.4
324,Santa Cruz Del Norte,CU,8/22/2020 1:57,23.15,-81.92,75.2,94,90,5.82
325,Khorixas,NA,8/22/2020 1:57,-20.37,14.97,57.69,27,62,9.35
326,Cabo San Lucas,MX,8/22/2020 1:56,22.89,-109.91,82.99,69,20,10.29
327,Broome,US,8/22/2020 1:56,42.25,-75.83,73.4,53,1,5.82
328,Touros,BR,8/22/2020 1:56,-5.2,-35.46,75.2,88,75,6.93
329,Thunder Bay,CA,8/22/2020 1:57,48.4,-89.32,64.4,88,40,8.05
330,Awbari,LY,8/22/2020 1:57,26.59,12.78,76.55,31,0,8.57
331,Buala,SB,8/22/2020 1:56,-8.14,159.59,84.92,72,64,7.7
332,Zhigansk,RU,8/22/2020 1:56,66.77,123.37,45.66,59,0,17.69
333,Flinders,AU,8/22/2020 1:53,-34.58,150.86,57.99,43,40,8.99
334,Luganville,VU,8/22/2020 1:56,-15.53,167.17,82.4,88,75,4.7
335,Garowe,SO,8/22/2020 1:57,8.41,48.48,73.83,67,96,23.85
336,Dokka,NO,8/22/2020 1:57,60.84,10.06,54,90,100,17
337,Weligama,LK,8/22/2020 1:57,5.97,80.42,81.01,81,94,7.36
338,Saint Anthony,US,8/22/2020 1:55,45.02,-93.22,82.99,65,75,9.17
339,Margate,GB,8/22/2020 1:57,51.38,1.39,64,80,0,1.99
340,Solnechnyy,RU,8/22/2020 1:57,50.72,136.63,73.02,48,0,6.67
341,Araouane,ML,8/22/2020 1:57,18.9,-3.53,98.01,14,92,6.24
342,Aklavik,CA,8/22/2020 1:56,68.22,-135.01,66.2,55,20,6.93
343,Egvekinot,RU,8/22/2020 1:57,66.32,-179.17,46.02,98,100,7.38
344,Maragogi,BR,8/22/2020 1:56,-9.01,-35.22,73.42,87,37,8.05
345,Vasto,IT,8/22/2020 1:57,42.12,14.71,69.8,77,0,5.82
346,Hay River,CA,8/22/2020 1:56,60.82,-115.8,60.8,72,75,9.17
347,Noyabrsk,RU,8/22/2020 1:57,63.2,75.45,49.6,92,53,11.21
348,Chernoyerkovskaya,RU,8/22/2020 1:57,45.43,37.77,64.4,82,20,8.95
349,Bhuban,IN,8/22/2020 1:57,20.88,85.83,83.12,76,98,5.1
350,Caluquembe,AO,8/22/2020 1:57,-13.78,14.68,51.13,34,16,2.57
351,Guarapari,BR,8/22/2020 1:57,-20.67,-40.5,68,72,75,14.99
352,Yar-Sale,RU,8/22/2020 1:56,66.83,70.83,53.89,92,96,8.84
353,Haimen,CN,8/22/2020 1:57,23.19,116.61,86,74,69,4.47
354,Luorong,CN,8/22/2020 1:57,24.41,109.61,83.98,75,48,1.72
355,Half Moon Bay,US,8/22/2020 1:56,37.46,-122.43,80.6,82,40,10.22
356,San Quintin,MX,8/22/2020 1:56,30.48,-115.95,82.6,58,98,3.87
357,Vardo,NO,8/22/2020 1:56,70.37,31.11,54.93,85,73,15.32
358,Timmins,CA,8/22/2020 1:53,48.47,-81.33,57.2,87,40,2.24
359,Kalemie,CD,8/22/2020 1:57,-5.95,29.19,71.6,65,61,3.69
360,Luena,AO,8/22/2020 1:57,-11.78,19.92,66.31,46,70,5.32
361,Kaeo,NZ,8/22/2020 1:57,-35.1,173.78,62.02,69,87,9.28
362,Nelson Bay,AU,8/22/2020 1:53,-32.72,152.15,57.99,50,14,26.4
363,Kavieng,PG,8/22/2020 1:56,-2.57,150.8,84.25,71,1,7.9
364,Sitka,US,8/22/2020 1:55,57.05,-135.33,57.2,87,90,2.84
365,Jiazi,CN,8/22/2020 1:57,22.88,116.07,85.44,69,0,1.61
366,Sale,MA,8/22/2020 1:57,34.04,-6.82,71.6,94,75,4.7
367,Pangnirtung,CA,8/22/2020 1:53,66.15,-65.71,50.32,70,7,3.22
368,Coihaique,CL,8/22/2020 1:57,-45.58,-72.07,46.4,65,100,10.29
369,Oriximina,BR,8/22/2020 1:56,-1.77,-55.87,81.55,39,0,4.27
370,Mahajanga,MG,8/22/2020 1:57,-15.72,46.32,71.6,78,20,6.93
371,College,US,8/22/2020 1:56,64.86,-147.8,68,56,75,6.11
372,Zhanaozen,KZ,8/22/2020 1:57,43.3,52.8,75.2,44,99,18.61
373,Gambela,ET,8/22/2020 1:57,8.25,34.58,68.29,88,10,2.66
374,Gat,IL,8/22/2020 1:56,31.61,34.76,75.99,35,16,5.59
375,Shingu,JP,8/22/2020 1:56,33.73,135.98,93.2,56,40,4.7
376,Lebrija,ES,8/22/2020 1:57,36.92,-6.08,71.01,88,0,1.52
377,Vao,NC,8/22/2020 1:56,-22.67,167.48,71.98,72,94,6.87
378,Noumea,NC,8/22/2020 1:57,-22.28,166.46,80.6,54,4,9.17
379,Mastic Beach,US,8/22/2020 1:55,40.77,-72.85,73.99,73,1,5.82
380,Tiznit,MA,8/22/2020 1:56,29.58,-9.5,78.44,26,0,1.01
381,Mishan,CN,8/22/2020 1:57,45.55,131.88,71.04,61,0,3.98
382,Ulaanbaatar,MN,8/22/2020 1:55,47.91,106.88,62.6,55,40,5.86
383,Lehliu,RO,8/22/2020 1:57,44.47,26.82,72,77,0,1.12
384,Meulaboh,ID,8/22/2020 1:55,4.14,96.13,80.62,82,100,2.35
385,Balsas,BR,8/22/2020 1:56,-7.53,-46.04,76.59,35,1,3.22
386,Redmond,US,8/22/2020 1:54,47.67,-122.12,69.01,92,96,6.82
387,Emba,KZ,8/22/2020 1:57,48.83,58.14,58.55,56,21,7.61
388,Hervey Bay,AU,8/22/2020 1:57,-25.3,152.85,75.99,26,0,14.99
389,Marrakesh,MA,8/22/2020 1:57,31.63,-8.01,82.4,37,20,1.12
390,Hamilton,US,8/22/2020 1:54,39.18,-84.53,75.99,88,1,3.36
391,Coffs Harbour,AU,8/22/2020 1:54,-30.3,153.13,69.8,28,40,18.34
392,Ponta Delgada,PT,8/22/2020 1:56,37.73,-25.67,71.6,88,20,5.82
393,Nome,US,8/22/2020 1:56,64.5,-165.41,55,81,90,4.7
394,Chacabuco,AR,8/22/2020 1:57,-34.64,-60.47,39.99,51,0,3
395,Sayyan,YE,8/22/2020 1:57,15.17,44.32,65.41,46,79,2.89
396,Zabol,AF,8/22/2020 1:57,32.25,67.25,68.25,43,0,1.28
397,Jadu,LY,8/22/2020 1:57,31.95,12.03,69.78,59,0,8.84
398,Arkadak,RU,8/22/2020 1:57,51.93,43.5,50.74,84,25,5.37
399,Iquique,CL,8/22/2020 1:57,-20.22,-70.14,59,72,90,3.36
400,Drumheller,CA,8/22/2020 1:57,51.46,-112.71,75,45,0,9.6
401,Souillac,MU,8/22/2020 1:56,-20.52,57.52,68,82,75,6.44
402,Piacabucu,BR,8/22/2020 1:57,-10.41,-36.43,73,87,77,7.7
403,Torit,SS,8/22/2020 1:57,4.41,32.57,68.85,87,0,2.86
404,Havoysund,NO,8/22/2020 1:57,71,24.66,62.6,77,72,16.11
405,Maine-Soroa,NE,8/22/2020 1:57,13.21,12.02,78.04,71,65,6.33
406,Ostersund,SE,8/22/2020 1:57,63.18,14.64,62.6,88,100,18.34
407,Nakamura,JP,8/22/2020 1:57,32.98,132.93,88.77,63,3,6.06
408,Foz,ES,8/22/2020 1:57,43.57,-7.25,55.99,1,0,6.13
409,Churapcha,RU,8/22/2020 1:57,62,132.43,61.92,32,0,6.98
410,Itoman,JP,8/22/2020 1:57,26.12,127.67,87.8,70,75,9.17
411,Makakilo City,US,8/22/2020 1:53,21.35,-158.09,89.6,49,75,9.17
412,Wanlaweyn,SO,8/22/2020 1:57,2.62,44.89,73.94,83,100,11.05
413,Coquimbo,CL,8/22/2020 1:56,-29.95,-71.34,50,87,0,3.36
414,Sebina,BW,8/22/2020 1:57,-20.87,27.25,58.57,76,99,16.67
415,Zainsk,RU,8/22/2020 1:57,55.32,52.07,53.6,93,90,6.71
416,Champerico,GT,8/22/2020 1:57,14.3,-91.92,81.93,75,100,3.24
417,Gizo,SB,8/22/2020 1:57,-8.1,156.84,84.13,72,100,5.79
418,Tomatlan,MX,8/22/2020 1:56,19.93,-105.25,77.81,89,100,2.28
419,Hermagor,AT,8/22/2020 1:57,46.63,13.37,72,95,2,1.01
420,Gurupi,BR,8/22/2020 1:57,-11.73,-49.07,77.81,38,9,6.89
421,Kalmunai,LK,8/22/2020 1:56,7.42,81.82,81.01,76,55,7.94
422,Yulara,AU,8/22/2020 1:53,-25.24,130.99,64.4,32,0,10.29
423,Mafinga,TZ,8/22/2020 1:57,-7.25,35.07,61.93,64,84,4.12
424,Udachnyy,RU,8/22/2020 1:57,66.42,112.4,53.6,50,54,4.47
425,Salalah,OM,8/22/2020 1:56,17.02,54.09,78.8,94,75,4.7
426,Alaca,TR,8/22/2020 1:57,40.17,34.84,57.9,76,41,5.88
427,Yelabuga,RU,8/22/2020 1:57,55.76,52.06,53.6,93,90,6.71
428,Jacmel,HT,8/22/2020 1:57,18.23,-72.53,86,70,48,8.05
429,Vila,PT,8/22/2020 1:56,42.03,-8.16,53.01,91,0,1.99
430,Sandpoint,US,8/22/2020 1:55,48.28,-116.55,86,25,1,9.17
431,Dingle,PH,8/22/2020 1:56,11,122.67,84.81,76,100,4.81
432,Atagay,RU,8/22/2020 1:57,55.1,99.39,59.79,88,92,1.34
433,Labuhan,ID,8/22/2020 1:56,-6.88,112.21,84.63,57,87,11.63
434,Asyut,EG,8/22/2020 1:56,27.18,31.18,78.8,47,0,9.17
435,Mayumba,GA,8/22/2020 1:56,-3.43,10.66,72.39,90,78,5.57
436,Porto Velho,BR,8/22/2020 1:57,-8.76,-63.9,59,82,75,5.82
437,Karratha,AU,8/22/2020 1:52,-20.74,116.85,82.17,18,0,19.93
438,Chake Chake,TZ,8/22/2020 1:57,-5.25,39.77,73.8,82,63,9.15
439,Salinopolis,BR,8/22/2020 1:55,-0.61,-47.36,78.62,87,0,11.83
440,Sidney,AU,8/22/2020 1:55,-33.87,151.21,59,30,44,20.8
441,Miraflores,MX,8/22/2020 1:56,19.22,-98.81,78.01,43,75,20.8
442,Jieshou,CN,8/22/2020 1:57,33.26,115.36,74.82,93,98,6.49
443,Tefe,BR,8/22/2020 1:57,-3.35,-64.71,80.74,59,32,4.59
444,Maumere,ID,8/22/2020 1:57,-8.62,122.21,83.59,55,0,1.25
445,Ust-Nera,RU,8/22/2020 1:57,64.57,143.2,47.62,50,88,6.8
446,Bethlehem,BR,8/22/2020 1:55,-1.46,-48.5,77,88,40,6.93
447,Huarmey,PE,8/22/2020 1:56,-10.07,-78.15,61.14,81,84,7.54
448,Kapuskasing,CA,8/22/2020 1:57,49.42,-82.43,66.2,68,75,3.36
449,Dalnerechensk,RU,8/22/2020 1:57,45.93,133.72,68.99,67,0,5.82
450,Yanam,IN,8/22/2020 1:57,16.73,82.22,80.53,86,97,7.45
451,Punta Alta,AR,8/22/2020 1:54,-38.88,-62.07,50.81,47,0,12.62
452,Nanakuli,US,8/22/2020 1:56,21.39,-158.15,89.6,49,75,9.17
453,Rocha,UY,8/22/2020 1:53,-34.48,-54.33,41.79,64,0,5.93
454,Rabat,MA,8/22/2020 1:55,33.99,-6.84,71.6,94,75,4.7
455,Miramar,US,8/22/2020 1:57,25.99,-80.23,86,79,20,10.29
456,Takhtamygda,RU,8/22/2020 1:57,54.1,123.57,73.09,44,100,3.89
457,Ryotsu,JP,8/22/2020 1:57,38.08,138.43,78.8,83,90,10.29
458,Arsk,RU,8/22/2020 1:57,56.09,49.88,53.6,87,75,8.95
459,Ouallam,NE,8/22/2020 1:57,14.32,2.09,75.22,76,100,21.21
460,Mengcheng,CN,8/22/2020 1:57,33.26,116.57,74.35,95,95,7.36
461,Prainha,BR,8/22/2020 1:56,-1.8,-53.48,79.23,51,0,2.62
462,Haverfordwest,GB,8/22/2020 1:57,51.8,-4.97,66.99,88,54,34.45
463,Lasa,IT,8/22/2020 1:55,46.62,10.7,60.8,100,5,1.12
464,Oranjemund,NA,8/22/2020 1:57,-28.55,16.43,64.94,25,0,14.56
465,Darasun,RU,8/22/2020 1:57,51.67,114,66.2,72,100,4.47
466,Rucheng,CN,8/22/2020 1:57,32.39,120.56,91.99,71,99,6.42
467,Komsomolskiy,UZ,8/22/2020 1:56,40.43,71.72,68,52,0,4.7
468,New Plymouth,NZ,8/22/2020 1:57,-39.07,174.08,55,75,0,8.01
469,Colac,AU,8/22/2020 1:56,-38.33,143.58,45,94,63,3
470,Guerrero Negro,MX,8/22/2020 1:56,27.98,-114.06,85.87,51,0,19.89
471,Paamiut,GL,8/22/2020 1:53,61.99,-49.67,43.92,81,0,2.26
472,Severo-Kurilsk,RU,8/22/2020 1:56,50.68,156.12,53.58,82,51,16.24
473,Umm Lajj,SA,8/22/2020 1:58,25.02,37.27,82.38,66,0,4.05
474,Dudinka,RU,8/22/2020 1:58,69.41,86.18,59,67,22,6.71
475,Tuatapere,NZ,8/22/2020 1:52,-46.13,167.68,55,75,3,8.01
476,Aykhal,RU,8/22/2020 1:56,66,111.5,53.6,50,95,4.47
477,Tevaitoa,PF,8/22/2020 1:58,-16.78,-151.5,78.01,78,5,22.97
478,Muhos,FI,8/22/2020 1:58,64.81,25.99,61,84,100,3
479,Navirai,BR,8/22/2020 1:58,-23.07,-54.19,43.65,75,0,4.97
480,Codrington,AU,8/22/2020 1:56,-38.27,141.97,51.89,71,79,25.61
481,Emilio Carranza,MX,8/22/2020 1:58,19.97,-96.61,81.05,79,65,4.56
482,Ballitoville,ZA,8/22/2020 1:58,-29.54,31.21,51.8,87,0,5.82
483,North Bend,US,8/22/2020 1:58,43.41,-124.22,66.99,93,90,14.99
484,Yemelyanovo,RU,8/22/2020 1:58,56.17,92.68,57.2,93,40,6.71
485,Marigot,MF,8/22/2020 1:58,18.07,-63.08,82.4,88,40,13.87
486,Pontes E Lacerda,BR,8/22/2020 1:58,-15.23,-59.34,55.15,41,94,7.99
487,Flin Flon,CA,8/22/2020 1:56,54.77,-101.86,64.51,63,100,8.03
488,Geraldton,AU,8/22/2020 1:52,-28.77,114.6,60.8,77,90,4.16
489,Rio Gallegos,AR,8/22/2020 1:58,-51.62,-69.22,44.6,65,40,3.36
490,Shimoda,JP,8/22/2020 1:56,34.67,138.95,86,79,40,6.93
491,Gayeri,BF,8/22/2020 1:58,12.65,0.49,74.46,89,100,10.25
492,Palauig,PH,8/22/2020 1:58,15.44,119.9,83.97,75,100,9.35
493,Jaguey Grande,CU,8/22/2020 1:58,22.53,-81.13,73.4,94,90,5.82
494,Bereda,ES,8/22/2020 1:58,43.27,-7.54,55.99,100,8,5.01
495,Tual,ID,8/22/2020 1:58,-5.67,132.75,79.48,81,54,17.18
496,Xifeng,CN,8/22/2020 1:58,42.74,124.72,74.17,73,14,5.17
497,Pokhara,NP,8/22/2020 1:58,28.23,83.98,74.62,79,9,1.7
498,Qax,AZ,8/22/2020 1:58,41.42,46.92,69.8,88,75,4.7
499,Bage,BR,8/22/2020 1:58,-31.33,-54.11,39.2,64,0,0.92
500,Waingapu,ID,8/22/2020 1:58,-9.66,120.26,85.73,51,4,12.1
501,Paris,FR,8/22/2020 1:57,48.85,2.35,68,72,54,10.29
502,Laje,BR,8/22/2020 1:58,-10.18,-40.97,69.8,68,0,6.58
503,Fare,PF,8/22/2020 1:58,-16.7,-151.02,77.77,78,0,22.64
504,Cahul,MD,8/22/2020 1:58,45.91,28.19,67.87,76,0,7.31
505,Lorengau,PG,8/22/2020 1:58,-2.02,147.27,86.59,63,34,8.66
506,Chinchani,IN,8/22/2020 1:58,19.87,72.7,81.34,87,100,16.22
507,Taoudenni,ML,8/22/2020 1:56,22.68,-3.98,99.27,10,18,8.5
508,Klaksvik,FO,8/22/2020 1:56,62.23,-6.59,50,100,94,26.4
509,Lagoa,PT,8/22/2020 1:56,39.05,-27.98,69.24,65,0,3.65
510,Huanren,CN,8/22/2020 1:58,41.26,125.37,78.04,63,35,3.31
511,Tautira,PF,8/22/2020 1:58,-17.73,-149.15,78.8,78,75,5.82
512,Kavaratti,IN,8/22/2020 1:56,10.57,72.64,81.93,77,76,8.93
513,Jizan,SA,8/22/2020 1:58,17.33,42.67,89.6,79,0,3.36
514,Uniontown,US,8/22/2020 1:58,39.9,-79.72,72,83,100,2.62
515,Ixtapa,MX,8/22/2020 1:53,20.7,-105.2,84.99,79,75,6.93
516,Sonoita,MX,8/22/2020 1:58,31.85,-112.83,96.01,42,1,13.67
517,Majene,ID,8/22/2020 1:58,-3.54,118.97,83.82,67,82,11.45
518,Katima Mulilo,NA,8/22/2020 1:58,-17.5,24.27,57.2,67,0,2.24
519,Preobrazheniye,RU,8/22/2020 1:58,42.9,133.91,71.22,54,0,3.04
520,Vila Franca Do Campo,PT,8/22/2020 1:54,37.72,-25.43,71.6,88,20,5.82
521,Evanston,US,8/22/2020 1:53,42.04,-87.69,82.4,45,20,6.93
522,Tabuk,PH,8/22/2020 1:58,17.42,121.44,84.29,71,100,3.98
523,Vilhena,BR,8/22/2020 1:58,-12.74,-60.15,52.56,75,0,5.99
524,Tuensang,IN,8/22/2020 1:58,26.28,94.83,77.13,73,26,1.52
525,Esperance,AU,8/22/2020 1:56,-33.87,121.9,53.6,87,100,11.41
526,Moerai,PF,8/22/2020 1:58,-22.43,-151.33,70.9,72,17,23.06
527,Brownsville,US,8/22/2020 1:58,25.9,-97.5,87.8,58,1,9.17
528,Tibati,CM,8/22/2020 1:58,6.47,12.63,63.64,97,83,1.14
529,Plettenberg Bay,ZA,8/22/2020 1:54,-34.05,23.37,58.57,47,0,4.43
530,Sorong,ID,8/22/2020 1:58,-0.88,131.25,83.7,70,89,6.11
531,Yatou,CN,8/22/2020 1:58,37.15,122.38,72.03,93,98,3.71
532,Shangrao,CN,8/22/2020 1:58,28.45,117.97,88.3,62,73,5.73
533,Waldbrol,DE,8/22/2020 1:58,50.88,7.62,69.8,68,20,4.7
534,Manapparai,IN,8/22/2020 1:58,10.6,78.42,80.6,78,20,2.98
535,Luwuk,ID,8/22/2020 1:53,-0.95,122.79,80.31,76,100,5.1
536,Auray,FR,8/22/2020 1:58,47.67,-2.99,63,88,0,6.93
537,High Level,CA,8/22/2020 1:58,58.52,-117.14,60.8,82,90,10.29
538,Navalmoral De La Mata,ES,8/22/2020 1:58,39.89,-5.54,66,41,59,3
539,Tuban,ID,8/22/2020 1:58,-6.9,112.06,84.25,56,89,11.01
540,Hofn,IS,8/22/2020 1:53,64.25,-15.21,48.92,63,0,15.23
541,Kvitok,RU,8/22/2020 1:58,56.07,98.48,60.08,83,100,2.8
542,Ardakan,IR,8/22/2020 1:58,32.31,54.02,87.8,18,0,4.7
543,Funabashi,JP,8/22/2020 1:58,35.69,139.98,93,83,75,6.93
544,Bali,ID,8/22/2020 1:55,-8.5,115,82.4,94,40,14.99
545,Neiafu,TO,8/22/2020 1:58,-18.65,-173.98,82.4,74,40,14.99
546,Namibe,AO,8/22/2020 1:53,-15.2,12.15,65.21,60,52,5.79
547,Owando,CG,8/22/2020 1:58,-0.48,15.9,72.05,95,100,2.66
548,Lewistown,US,8/22/2020 1:58,40.6,-77.57,77,69,1,3.94
549,Southbridge,US,8/22/2020 1:58,42.08,-72.03,72,80,52,5.97
550,Swiecie,PL,8/22/2020 1:58,53.41,18.45,70,77,48,1.01
551,Santa Fe,AR,8/22/2020 1:56,-31.63,-60.7,48.99,38,0,1.99
552,Arlit,NE,8/22/2020 1:56,18.74,7.39,92.21,34,0,8.46
553,Khirkiya,IN,8/22/2020 1:58,22.17,76.86,75.33,95,100,17.05
554,Bathsheba,BB,8/22/2020 1:53,13.22,-59.52,84.2,83,75,17.22
555,Paithan,IN,8/22/2020 1:56,19.48,75.38,73.4,94,75,3.36
556,Kendari,ID,8/22/2020 1:58,-3.94,122.5,85.87,57,79,3.53
557,Mujiayingzi,CN,8/22/2020 1:58,42.12,118.78,73.63,49,0,3.85
558,Shashi,CN,8/22/2020 1:58,30.31,112.24,79,84,100,6.08
559,Zonguldak,TR,8/22/2020 1:58,41.25,31.83,58.53,86,0,3.76
560,Manono,CD,8/22/2020 1:58,-7.3,27.42,73.36,46,90,2.98
561,Zaraza,VE,8/22/2020 1:58,9.35,-65.32,72.95,98,100,2.46
562,Gambo,CF,8/22/2020 1:58,4.65,22.26,70.99,98,100,4.05
563,Eenhana,NA,8/22/2020 1:56,-17.47,16.33,55.4,19,88,4.7
564,Bengkulu,ID,8/22/2020 1:56,-3.8,102.27,83.07,67,4,2.26
565,Aberdeen,GB,8/22/2020 1:55,57.14,-2.1,57.99,82,98,6.93
566,Ivrea,IT,8/22/2020 1:58,45.47,7.88,75,85,5,5.1
567,Alekseyevsk,RU,8/22/2020 1:58,57.84,108.35,71.98,40,100,4.81
568,Chulym,RU,8/22/2020 1:58,55.1,80.96,54.23,89,72,9.44
569,Nouadhibou,MR,8/22/2020 1:56,20.93,-17.03,78.8,69,91,11.41
570,Hinesville,US,8/22/2020 1:58,31.85,-81.6,77,83,1,2.44
571,Hopelchen,MX,8/22/2020 1:58,19.77,-89.85,83.25,59,52,3.6
572,Salinas,US,8/22/2020 1:58,36.68,-121.66,75,64,90,14.99
573,Bud,US,8/22/2020 1:56,39.45,-86.18,70,93,1,3.31
574,Gorontalo,ID,8/22/2020 1:58,0.54,123.06,82.04,73,100,5.35
